{
	"total":30,
	"message":"ok",
	"results":[
		{
			"area":"雨花区",
			"uid":"e99407a48860e273901fc943",
			"address":"红星安置小区A区12栋一楼",
			"province":"湖南省",
			"city":"长沙市",
			"detail_info":{
				"detail_url":"http://api.map.baidu.com/place/detail?uid=e99407a48860e273901fc943&output=html&source=placeapi_v2",
				"distance":617,
				"children":[],
				"tag":"公司企业;公司",
				"type":"enterprise"
			},
			"name":"顺丰广告",
			"location":{
				"lng":113.02618,
				"lat":28.134705
			},
			"detail":1
		},
		{
			"area":"雨花区",
			"uid":"b17c84566202f12708ccddca",
			"address":"长沙市雨花区洞井中路与井湾路交叉路口往南约50米(景湾小区-西区)",
			"province":"湖南省",
			"city":"长沙市",
			"detail_info":{
				"detail_url":"http://api.map.baidu.com/place/detail?uid=b17c84566202f12708ccddca&output=html&source=placeapi_v2",
				"distance":559,
				"children":[],
				"tag":"公司企业;公司",
				"type":"enterprise"
			},
			"name":"鑫源广告(洞井路店)",
			"location":{
				"lng":113.027357,
				"lat":28.130521
			},
			"telephone":"(0731)88579682,18008428385",
			"detail":1,
			"street_id":"b17c84566202f12708ccddca"
		},
		{
			"area":"雨花区",
			"uid":"190084cf1025f7e7b1077de0",
			"address":"湖南省长沙市雨花区木莲东路299号",
			"province":"湖南省",
			"city":"长沙市",
			"detail_info":{
				"comment_num":"2",
				"detail_url":"http://api.map.baidu.com/place/detail?uid=190084cf1025f7e7b1077de0&output=html&source=placeapi_v2",
				"distance":669,
				"children":[],
				"tag":"公司企业;公司",
				"overall_rating":"5.0",
				"type":"enterprise"
			},
			"name":"迅卓图文广告",
			"location":{
				"lng":113.037573,
				"lat":28.136892
			},
			"telephone":"13387488866",
			"detail":1
		},
		{
			"area":"雨花区",
			"uid":"60e5cb5e03bf6bb9ab175adf",
			"address":"井湾路867号",
			"province":"湖南省",
			"city":"长沙市",
			"detail_info":{
				"comment_num":"1",
				"detail_url":"http://api.map.baidu.com/place/detail?uid=60e5cb5e03bf6bb9ab175adf&output=html&source=placeapi_v2",
				"distance":407,
				"children":[],
				"tag":"生活服务;图文快印店",
				"overall_rating":"0.0",
				"type":"life",
				"image_num":"12"
			},
			"name":"光派·文印",
			"location":{
				"lng":113.030315,
				"lat":28.129892
			},
			"detail":1,
			"street_id":"60e5cb5e03bf6bb9ab175adf"
		},
		{
			"area":"雨花区",
			"uid":"efcb801a4e6ff9d82fb17e25",
			"address":"湖南省长沙市雨花区井湾路668号",
			"province":"湖南省",
			"city":"长沙市",
			"detail_info":{
				"comment_num":"1",
				"detail_url":"http://api.map.baidu.com/place/detail?uid=efcb801a4e6ff9d82fb17e25&output=html&source=placeapi_v2",
				"distance":471,
				"children":[],
				"tag":"生活服务;图文快印店",
				"overall_rating":"5.0",
				"type":"life",
				"image_num":"11"
			},
			"name":"科达文印",
			"location":{
				"lng":113.029659,
				"lat":28.129565
			},
			"telephone":"(0731)85588920",
			"detail":1,
			"street_id":"efcb801a4e6ff9d82fb17e25"
		},
		{
			"area":"雨花区",
			"uid":"721d9b10d6ab31441811d554",
			"address":"湖南省长沙市雨花区洞井中路411号园康星都荟小区3栋104门面",
			"province":"湖南省",
			"city":"长沙市",
			"detail_info":{
				"detail_url":"http://api.map.baidu.com/place/detail?uid=721d9b10d6ab31441811d554&output=html&source=placeapi_v2",
				"distance":551,
				"children":[],
				"tag":"生活服务;图文快印店",
				"type":"life",
				"image_num":"1"
			},
			"name":"优品图文",
			"location":{
				"lng":113.026992,
				"lat":28.134965
			},
			"detail":1
		},
		{
			"area":"雨花区",
			"uid":"1686055b5d801f30e856faf3",
			"address":"长沙市雨花区洞井中路与木莲东路交叉路口往东南约100米(园康星都荟)",
			"province":"湖南省",
			"city":"长沙市",
			"detail_info":{
				"comment_num":"1",
				"detail_url":"http://api.map.baidu.com/place/detail?uid=1686055b5d801f30e856faf3&output=html&source=placeapi_v2",
				"distance":534,
				"children":[],
				"tag":"公司企业;公司",
				"overall_rating":"0.0",
				"type":"enterprise"
			},
			"name":"和信广告",
			"location":{
				"lng":113.027065,
				"lat":28.134697
			},
			"detail":1
		},
		{
			"area":"雨花区",
			"uid":"93f8e6840484d299c7f50d0e",
			"address":"长沙市雨花区木莲中路与洞井中路交叉路口西南侧(园康星都荟)",
			"province":"湖南省",
			"city":"长沙市",
			"detail_info":{
				"detail_url":"http://api.map.baidu.com/place/detail?uid=93f8e6840484d299c7f50d0e&output=html&source=placeapi_v2",
				"distance":670,
				"children":[],
				"tag":"公司企业;公司",
				"type":"enterprise"
			},
			"name":"佰印图文广告",
			"location":{
				"lng":113.026031,
				"lat":28.135706
			},
			"detail":1
		}
	],
	"status":0
}
