{
	"total":7,
	"param":{
		"keywords":"广告,图文,招牌,打印,复印,发光字,灯光,亮化,电子显示屏",
		"center":"中路铺镇",
		"center_gps":"27.55836,112.935114"
	},
	"message":"ok",
	"results":[
		{
			"area":"湘潭县",
			"uid":"0625c6027736365aad31e567",
			"address":"湖南省湘潭市湘潭县中路铺镇政府(湘中路西)",
			"province":"湖南省",
			"city":"湘潭市",
			"detail_info":{
				"comment_num":"2",
				"detail_url":"http://api.map.baidu.com/place/detail?uid=0625c6027736365aad31e567&output=html&source=placeapi_v2",
				"distance":12,
				"children":[],
				"tag":"购物;商铺",
				"overall_rating":"0.0",
				"type":"shopping"
			},
			"name":"和平办公文具",
			"location":{
				"lng":112.935139,
				"lat":27.558473
			},
			"telephone":"(0731)57890105",
			"detail":1
		},
		{
			"area":"湘潭县",
			"uid":"ca6e794949d1c84204fef53c",
			"address":"湘潭市湘潭县湘中路与邮政路交叉路口北侧",
			"province":"湖南省",
			"city":"湘潭市",
			"detail_info":{
				"detail_url":"http://api.map.baidu.com/place/detail?uid=ca6e794949d1c84204fef53c&output=html&source=placeapi_v2",
				"distance":53,
				"children":[],
				"tag":"公司企业;公司",
				"type":"enterprise"
			},
			"name":"开心广告",
			"location":{
				"lng":112.935157,
				"lat":27.558841
			},
			"telephone":"13365828910,13337321663",
			"detail":1
		},
		{
			"area":"湘潭县",
			"uid":"638c7e2a1f9f4387e5e965bb",
			"address":"湘潭市湘潭县邮政路与湘中路交叉路口往东约100米",
			"province":"湖南省",
			"city":"湘潭市",
			"detail_info":{
				"detail_url":"http://api.map.baidu.com/place/detail?uid=638c7e2a1f9f4387e5e965bb&output=html&source=placeapi_v2",
				"distance":93,
				"children":[],
				"tag":"公司企业;公司",
				"type":"enterprise"
			},
			"name":"万里红广告",
			"location":{
				"lng":112.935958,
				"lat":27.557978
			},
			"detail":1
		},
		{
			"area":"湘潭县",
			"uid":"4a87afe4f8322b3e07fef578",
			"address":"湘潭市湘潭县湘中路与花园路交叉路口西侧",
			"province":"湖南省",
			"city":"湘潭市",
			"detail_info":{
				"detail_url":"http://api.map.baidu.com/place/detail?uid=4a87afe4f8322b3e07fef578&output=html&source=placeapi_v2",
				"distance":194,
				"children":[],
				"tag":"公司企业;公司",
				"type":"enterprise"
			},
			"name":"新民广告部",
			"location":{
				"lng":112.934945,
				"lat":27.560106
			},
			"detail":1
		},
		{
			"area":"湘潭县",
			"uid":"a6619318e65fab3fb5f42f9c",
			"address":"湘潭市湘潭县湘中路与邮政路交叉路口东侧",
			"province":"湖南省",
			"city":"湘潭市",
			"detail_info":{
				"detail_url":"http://api.map.baidu.com/place/detail?uid=a6619318e65fab3fb5f42f9c&output=html&source=placeapi_v2",
				"distance":8,
				"children":[],
				"tag":"生活服务;图文快印店",
				"type":"life",
				"image_num":"1"
			},
			"name":"小王子打印社",
			"location":{
				"lng":112.93515,
				"lat":27.558295
			},
			"detail":1
		}
	],
	"status":0
}