{
	"total":191,
	"param":{
		"keywords":"广告,图文,招牌,打印,复印,发光字,灯光,亮化,电子显示屏",
		"center":"易俗河镇(县政府驻地)",
		"center_gps":"27.778729,112.962392"
	},
	"message":"ok",
	"results":[
		{
			"area":"湘潭县",
			"uid":"2064f4814594c6ae28201ad6",
			"address":"湘潭市湘潭县凤凰中路860号",
			"province":"湖南省",
			"city":"湘潭市",
			"detail_info":{
				"comment_num":"1",
				"detail_url":"http://api.map.baidu.com/place/detail?uid=2064f4814594c6ae28201ad6&output=html&source=placeapi_v2",
				"distance":1422,
				"children":[],
				"tag":"生活服务;图文快印店",
				"overall_rating":"5.0",
				"type":"enterprise"
			},
			"name":"湘印图文广告",
			"location":{
				"lng":112.95877,
				"lat":27.791117
			},
			"telephone":"18073218593",
			"detail":1,
			"street_id":"2064f4814594c6ae28201ad6"
		},
		{
			"area":"湘潭县",
			"uid":"c8282d861b526b96ab059d73",
			"address":"凤凰中路400",
			"province":"湖南省",
			"city":"湘潭市",
			"detail_info":{
				"comment_num":"5",
				"detail_url":"http://api.map.baidu.com/place/detail?uid=c8282d861b526b96ab059d73&output=html&source=placeapi_v2",
				"distance":1698,
				"children":[],
				"tag":"生活服务;图文快印店",
				"overall_rating":"5.0",
				"type":"life",
				"image_num":"9"
			},
			"name":"一新图文",
			"location":{
				"lng":112.965021,
				"lat":27.79383
			},
			"telephone":"13087229141,(0731)57884168",
			"detail":1,
			"street_id":"c8282d861b526b96ab059d73"
		},
		{
			"area":"湘潭县",
			"uid":"5703241aa3a269edf03cba21",
			"address":"湘潭市湘潭县杨柳北路与天易大道交叉路口东北侧(金丰亿·学府雅苑)",
			"province":"湖南省",
			"city":"湘潭市",
			"detail_info":{
				"detail_url":"http://api.map.baidu.com/place/detail?uid=5703241aa3a269edf03cba21&output=html&source=placeapi_v2",
				"distance":1732,
				"children":[],
				"tag":"生活服务;图文快印店",
				"type":"life",
				"image_num":"2"
			},
			"name":"广告图文",
			"location":{
				"lng":112.977324,
				"lat":27.786993
			},
			"detail":1
		},
		{
			"area":"湘潭县",
			"uid":"88ab2366bd848deb9cf779fd",
			"address":"湖南省湘潭市湘潭县凤凰西路202附近",
			"province":"湖南省",
			"city":"湘潭市",
			"detail_info":{
				"detail_url":"http://api.map.baidu.com/place/detail?uid=88ab2366bd848deb9cf779fd&output=html&source=placeapi_v2",
				"distance":1784,
				"children":[],
				"tag":"生活服务;图文快印店",
				"type":"life",
				"image_num":"2"
			},
			"name":"宇洋图文",
			"location":{
				"lng":112.945991,
				"lat":27.785579
			},
			"detail":1
		},
		{
			"area":"湘潭县",
			"uid":"4725d6ea0bd238b97adbd2ea",
			"address":"湖南省湘潭市湘潭县麒麟路245号",
			"province":"湖南省",
			"city":"湘潭市",
			"detail_info":{
				"comment_num":"1",
				"detail_url":"http://api.map.baidu.com/place/detail?uid=4725d6ea0bd238b97adbd2ea&output=html&source=placeapi_v2",
				"distance":1889,
				"children":[],
				"tag":"生活服务;图文快印店",
				"overall_rating":"5.0",
				"type":"life",
				"image_num":"1"
			},
			"name":"富彩图文影像",
			"location":{
				"lng":112.975401,
				"lat":27.791228
			},
			"detail":1
		},
		{
			"area":"湘潭县",
			"uid":"4b69aa83c75ad01a0aa8d432",
			"address":"金桂南路599号",
			"province":"湖南省",
			"city":"湘潭市",
			"detail_info":{
				"detail_url":"http://api.map.baidu.com/place/detail?uid=4b69aa83c75ad01a0aa8d432&output=html&source=placeapi_v2",
				"distance":1194,
				"children":[],
				"tag":"生活服务;图文快印店",
				"type":"life",
				"image_num":"2"
			},
			"name":"东方广告",
			"location":{
				"lng":112.957398,
				"lat":27.78852
			},
			"telephone":"(0731)57821199",
			"detail":1,
			"street_id":"4b69aa83c75ad01a0aa8d432"
		},
		{
			"area":"湘潭县",
			"uid":"68ea48608a96560ccc06a4c0",
			"address":"金桂南路471号",
			"province":"湖南省",
			"city":"湘潭市",
			"detail_info":{
				"comment_num":"1",
				"detail_url":"http://api.map.baidu.com/place/detail?uid=68ea48608a96560ccc06a4c0&output=html&source=placeapi_v2",
				"distance":1056,
				"children":[],
				"tag":"生活服务;图文快印店",
				"overall_rating":"0.0",
				"type":"life",
				"image_num":"3"
			},
			"name":"七彩虹彩印厂业务部",
			"location":{
				"lng":112.958074,
				"lat":27.787425
			},
			"telephone":"13307321208",
			"detail":1,
			"street_id":"68ea48608a96560ccc06a4c0"
		},
		{
			"area":"湘潭县",
			"uid":"224774df34075f3ac51b7539",
			"address":"湘潭市湘潭县天易大道与杨柳中路交叉路口往西约50米(云龙社区南侧)",
			"province":"湖南省",
			"city":"湘潭市",
			"detail_info":{
				"detail_url":"http://api.map.baidu.com/place/detail?uid=224774df34075f3ac51b7539&output=html&source=placeapi_v2",
				"distance":1464,
				"children":[],
				"tag":"生活服务;图文快印店",
				"type":"life",
				"image_num":"1"
			},
			"name":"湘潭湘江印章社",
			"location":{
				"lng":112.974739,
				"lat":27.786082
			},
			"detail":1
		},
		{
			"area":"湘潭县",
			"uid":"450b09ec1b9a2d138936ee07",
			"address":"湖南省湘潭市湘潭县凤凰路689号西北80米",
			"province":"湖南省",
			"city":"湘潭市",
			"detail_info":{
				"detail_url":"http://api.map.baidu.com/place/detail?uid=450b09ec1b9a2d138936ee07&output=html&source=placeapi_v2",
				"distance":1856,
				"children":[],
				"tag":"生活服务;图文快印店",
				"type":"life",
				"image_num":"3"
			},
			"name":"低调快印",
			"location":{
				"lng":112.967173,
				"lat":27.794879
			},
			"detail":1
		}
	],
	"status":0
}