{
	"total":191,
	"param":{
		"keywords":"广告,图文,招牌,打印,复印,发光字,灯光,亮化,电子显示屏",
		"center":"易俗河镇(县政府驻地)",
		"center_gps":"27.778729,112.962392"
	},
	"message":"ok",
	"results":[
		{
			"area":"湘潭县",
			"uid":"99e5b9ac3706bb35451a32fe",
			"address":"易俗河镇雪松南路长通新城南苑2-4门面",
			"province":"湖南省",
			"city":"湘潭市",
			"detail_info":{
				"comment_num":"1",
				"detail_url":"http://api.map.baidu.com/place/detail?uid=99e5b9ac3706bb35451a32fe&output=html&source=placeapi_v2",
				"distance":100,
				"children":[],
				"tag":"公司企业;公司",
				"overall_rating":"5.0",
				"type":"enterprise"
			},
			"name":"星辰广告",
			"location":{
				"lng":112.961885,
				"lat":27.777943
			},
			"telephone":"15107328453",
			"detail":1
		},
		{
			"area":"湘潭县",
			"uid":"72b9621ff93351384c6d46fc",
			"address":"易俗河镇雪松中路22号(现代医院往左50米)",
			"province":"湖南省",
			"city":"湘潭市",
			"detail_info":{
				"detail_url":"http://api.map.baidu.com/place/detail?uid=72b9621ff93351384c6d46fc&output=html&source=placeapi_v2",
				"distance":196,
				"navi_location":{
					"lng":112.96296335095,
					"lat":27.780395776848
				},
				"children":[],
				"tag":"生活服务;图文快印店",
				"type":"life",
				"image_num":"3"
			},
			"name":"洋洋图文",
			"location":{
				"lng":112.963105,
				"lat":27.780379
			},
			"telephone":"13135328650",
			"detail":1
		},
		{
			"area":"湘潭县",
			"uid":"31f799a794addcd74c6d461c",
			"address":"湘潭市湘潭县云龙中路216号",
			"province":"湖南省",
			"city":"湘潭市",
			"detail_info":{
				"detail_url":"http://api.map.baidu.com/place/detail?uid=31f799a794addcd74c6d461c&output=html&source=placeapi_v2",
				"distance":175,
				"children":[],
				"tag":"生活服务;图文快印店",
				"type":"life",
				"image_num":"4"
			},
			"name":"诚信印刷",
			"location":{
				"lng":112.961628,
				"lat":27.780152
			},
			"telephone":"13787320921",
			"detail":1,
			"street_id":"31f799a794addcd74c6d461c"
		},
		{
			"area":"湘潭县",
			"uid":"f16d2ba660fe075a8715417c",
			"address":"长通新城南苑8栋7号门面",
			"province":"湖南省",
			"city":"湘潭市",
			"detail_info":{
				"detail_url":"http://api.map.baidu.com/place/detail?uid=f16d2ba660fe075a8715417c&output=html&source=placeapi_v2",
				"distance":198,
				"children":[],
				"tag":"公司企业;公司",
				"type":"enterprise"
			},
			"name":"时尚广告",
			"location":{
				"lng":112.963748,
				"lat":27.777407
			},
			"telephone":"13667412816",
			"detail":1
		},
		{
			"area":"湘潭县",
			"uid":"3f16b61d3317095372455b76",
			"address":"湖南省湘潭县易俗河镇长通新城8栋8号",
			"province":"湖南省",
			"city":"湘潭市",
			"detail_info":{
				"detail_url":"http://api.map.baidu.com/place/detail?uid=3f16b61d3317095372455b76&output=html&source=placeapi_v2",
				"distance":217,
				"children":[],
				"tag":"公司企业;公司",
				"type":"enterprise"
			},
			"name":"昌盛广告",
			"location":{
				"lng":112.963817,
				"lat":27.777235
			},
			"telephone":"18711332688",
			"detail":1
		},
		{
			"area":"湘潭县",
			"uid":"182751a51785bf964251c0c5",
			"address":"湖南省湘潭市湘潭县雪松中路358附近",
			"province":"湖南省",
			"city":"湘潭市",
			"detail_info":{
				"detail_url":"http://api.map.baidu.com/place/detail?uid=182751a51785bf964251c0c5&output=html&source=placeapi_v2",
				"distance":469,
				"navi_location":{
					"lng":112.96409980174,
					"lat":27.782631362674
				},
				"children":[],
				"tag":"公司企业;公司",
				"type":"enterprise"
			},
			"name":"弘大广告",
			"location":{
				"lng":112.963983,
				"lat":27.782706
			},
			"telephone":"(0731)57800512",
			"detail":1
		},
		{
			"area":"湘潭县",
			"uid":"32756bb0f1d5d1b40b69d931",
			"address":"湘潭市湘潭县易俗河镇金松六路21号",
			"province":"湖南省",
			"city":"湘潭市",
			"detail_info":{
				"detail_url":"http://api.map.baidu.com/place/detail?uid=32756bb0f1d5d1b40b69d931&output=html&source=placeapi_v2",
				"distance":367,
				"children":[],
				"tag":"公司企业;公司",
				"type":"enterprise"
			},
			"name":"志一广告装饰有限公司",
			"location":{
				"lng":112.959367,
				"lat":27.780673
			},
			"detail":1
		},
		{
			"area":"湘潭县",
			"uid":"9ac5148bee3446c5dc1e5203",
			"address":"易俗河镇金桂南路8号",
			"province":"湖南省",
			"city":"湘潭市",
			"detail_info":{
				"detail_url":"http://api.map.baidu.com/place/detail?uid=9ac5148bee3446c5dc1e5203&output=html&source=placeapi_v2",
				"distance":377,
				"children":[],
				"tag":"公司企业;公司",
				"type":"enterprise"
			},
			"name":"华兴广告(云龙中路)",
			"location":{
				"lng":112.959067,
				"lat":27.780426
			},
			"telephone":"(0731)57881161",
			"detail":1,
			"street_id":"9ac5148bee3446c5dc1e5203"
		},
		{
			"area":"湘潭县",
			"uid":"94d714e4eb8cbe36132935d6",
			"address":"易俗河镇金桂南路79号",
			"province":"湖南省",
			"city":"湘潭市",
			"detail_info":{
				"detail_url":"http://api.map.baidu.com/place/detail?uid=94d714e4eb8cbe36132935d6&output=html&source=placeapi_v2",
				"distance":469,
				"navi_location":{
					"lng":112.95855205735,
					"lat":27.781052177358
				},
				"children":[],
				"tag":"公司企业;公司",
				"type":"enterprise"
			},
			"name":"一点广告(金桂南路)",
			"location":{
				"lng":112.958495,
				"lat":27.781167
			},
			"telephone":"(0731)57806880,15111138880",
			"detail":1,
			"street_id":"94d714e4eb8cbe36132935d6"
		},
		{
			"area":"湘潭县",
			"uid":"a95522dbc391fe2d6c4760ad",
			"address":"湘潭市湘潭县易俗河镇玉兰南路992号花果山庄A栋",
			"province":"湖南省",
			"city":"湘潭市",
			"detail_info":{
				"detail_url":"http://api.map.baidu.com/place/detail?uid=a95522dbc391fe2d6c4760ad&output=html&source=placeapi_v2",
				"distance":574,
				"children":[],
				"tag":"公司企业;公司",
				"type":"enterprise"
			},
			"name":"华扬广告",
			"location":{
				"lng":112.956878,
				"lat":27.777022
			},
			"telephone":"18373239885",
			"detail":1
		}
	],
	"status":0
}