{
	"total":191,
	"param":{
		"keywords":"广告,图文,招牌,打印,复印,发光字,灯光,亮化,电子显示屏",
		"center":"易俗河镇(县政府驻地)",
		"center_gps":"27.778729,112.962392"
	},
	"message":"ok",
	"results":[
		{
			"area":"湘潭县",
			"uid":"6c9968f742c5a2f6a4c75639",
			"address":"大鹏中路625号",
			"province":"湖南省",
			"city":"湘潭市",
			"detail_info":{
				"detail_url":"http://api.map.baidu.com/place/detail?uid=6c9968f742c5a2f6a4c75639&output=html&source=placeapi_v2",
				"distance":880,
				"navi_location":{
					"lng":112.95511467425,
					"lat":27.783736186673
				},
				"children":[],
				"tag":"生活服务;图文快印店",
				"overall_rating":"3.0",
				"type":"life",
				"image_num":"1"
			},
			"name":"重成图文",
			"location":{
				"lng":112.95528,
				"lat":27.783535
			},
			"telephone":"13973248986",
			"detail":1,
			"street_id":"6c9968f742c5a2f6a4c75639"
		},
		{
			"area":"湘潭县",
			"uid":"c33cc65774204a7386420e79",
			"address":"杜鹃路30",
			"province":"湖南省",
			"city":"湘潭市",
			"detail_info":{
				"detail_url":"http://api.map.baidu.com/place/detail?uid=c33cc65774204a7386420e79&output=html&source=placeapi_v2",
				"distance":1030,
				"children":[],
				"tag":"生活服务;图文快印店",
				"type":"life",
				"image_num":"2"
			},
			"name":"湘之杰图文工作室",
			"location":{
				"lng":112.955496,
				"lat":27.785708
			},
			"detail":1,
			"street_id":"c33cc65774204a7386420e79"
		},
		{
			"area":"湘潭县",
			"uid":"41e1a0ffd02efe3b4c2fdff5",
			"address":"湘潭市湘潭县杏丹二路与杜鹃路交叉路口西南侧(杜鹃生活小区5号楼)",
			"province":"湖南省",
			"city":"湘潭市",
			"detail_info":{
				"detail_url":"http://api.map.baidu.com/place/detail?uid=41e1a0ffd02efe3b4c2fdff5&output=html&source=placeapi_v2",
				"distance":1147,
				"children":[],
				"tag":"生活服务;图文快印店",
				"type":"life",
				"image_num":"3"
			},
			"name":"吉达快印",
			"location":{
				"lng":112.954801,
				"lat":27.78656
			},
			"detail":1,
			"street_id":"41e1a0ffd02efe3b4c2fdff5"
		},
		{
			"area":"湘潭县",
			"uid":"4b69aa83c75ad01a0aa8d432",
			"address":"金桂南路599号",
			"province":"湖南省",
			"city":"湘潭市",
			"detail_info":{
				"detail_url":"http://api.map.baidu.com/place/detail?uid=4b69aa83c75ad01a0aa8d432&output=html&source=placeapi_v2",
				"distance":1194,
				"children":[],
				"tag":"生活服务;图文快印店",
				"type":"life",
				"image_num":"2"
			},
			"name":"东方广告",
			"location":{
				"lng":112.957398,
				"lat":27.78852
			},
			"telephone":"(0731)57821199",
			"detail":1,
			"street_id":"4b69aa83c75ad01a0aa8d432"
		},
		{
			"area":"湘潭县",
			"uid":"224774df34075f3ac51b7539",
			"address":"湘潭市湘潭县天易大道与杨柳中路交叉路口往西约50米(云龙社区南侧)",
			"province":"湖南省",
			"city":"湘潭市",
			"detail_info":{
				"detail_url":"http://api.map.baidu.com/place/detail?uid=224774df34075f3ac51b7539&output=html&source=placeapi_v2",
				"distance":1464,
				"children":[],
				"tag":"生活服务;图文快印店",
				"type":"life",
				"image_num":"1"
			},
			"name":"湘潭湘江印章社",
			"location":{
				"lng":112.974739,
				"lat":27.786082
			},
			"detail":1
		},
		{
			"area":"湘潭县",
			"uid":"f58fb29ca5939903a8f0cd20",
			"address":"湘潭市湘潭县玉兰中路与凤凰西路交叉路口往东南约50米(诚信购物广场北侧)",
			"province":"湖南省",
			"city":"湘潭市",
			"detail_info":{
				"detail_url":"http://api.map.baidu.com/place/detail?uid=f58fb29ca5939903a8f0cd20&output=html&source=placeapi_v2",
				"distance":1540,
				"children":[],
				"tag":"生活服务;图文快印店",
				"type":"life",
				"image_num":"2"
			},
			"name":"Q族数码照相文印店",
			"location":{
				"lng":112.948998,
				"lat":27.785904
			},
			"telephone":"13786219570",
			"detail":1
		},
		{
			"area":"湘潭县",
			"uid":"c8282d861b526b96ab059d73",
			"address":"凤凰中路400",
			"province":"湖南省",
			"city":"湘潭市",
			"detail_info":{
				"comment_num":"5",
				"detail_url":"http://api.map.baidu.com/place/detail?uid=c8282d861b526b96ab059d73&output=html&source=placeapi_v2",
				"distance":1698,
				"children":[],
				"tag":"生活服务;图文快印店",
				"overall_rating":"5.0",
				"type":"life",
				"image_num":"9"
			},
			"name":"一新图文",
			"location":{
				"lng":112.965021,
				"lat":27.79383
			},
			"telephone":"13087229141,(0731)57884168",
			"detail":1,
			"street_id":"c8282d861b526b96ab059d73"
		},
		{
			"area":"湘潭县",
			"uid":"5703241aa3a269edf03cba21",
			"address":"湘潭市湘潭县杨柳北路与天易大道交叉路口东北侧(金丰亿·学府雅苑)",
			"province":"湖南省",
			"city":"湘潭市",
			"detail_info":{
				"detail_url":"http://api.map.baidu.com/place/detail?uid=5703241aa3a269edf03cba21&output=html&source=placeapi_v2",
				"distance":1732,
				"children":[],
				"tag":"生活服务;图文快印店",
				"type":"life",
				"image_num":"2"
			},
			"name":"广告图文",
			"location":{
				"lng":112.977324,
				"lat":27.786993
			},
			"detail":1
		},
		{
			"area":"湘潭县",
			"uid":"88ab2366bd848deb9cf779fd",
			"address":"湖南省湘潭市湘潭县凤凰西路202附近",
			"province":"湖南省",
			"city":"湘潭市",
			"detail_info":{
				"detail_url":"http://api.map.baidu.com/place/detail?uid=88ab2366bd848deb9cf779fd&output=html&source=placeapi_v2",
				"distance":1784,
				"children":[],
				"tag":"生活服务;图文快印店",
				"type":"life",
				"image_num":"2"
			},
			"name":"宇洋图文",
			"location":{
				"lng":112.945991,
				"lat":27.785579
			},
			"detail":1
		},
		{
			"area":"湘潭县",
			"uid":"68ea48608a96560ccc06a4c0",
			"address":"金桂南路471号",
			"province":"湖南省",
			"city":"湘潭市",
			"detail_info":{
				"comment_num":"1",
				"detail_url":"http://api.map.baidu.com/place/detail?uid=68ea48608a96560ccc06a4c0&output=html&source=placeapi_v2",
				"distance":1056,
				"children":[],
				"tag":"生活服务;图文快印店",
				"overall_rating":"0.0",
				"type":"life",
				"image_num":"3"
			},
			"name":"七彩虹彩印厂业务部",
			"location":{
				"lng":112.958074,
				"lat":27.787425
			},
			"telephone":"13307321208",
			"detail":1,
			"street_id":"68ea48608a96560ccc06a4c0"
		}
	],
	"status":0
}