{
	"total":191,
	"param":{
		"keywords":"广告,图文,招牌,打印,复印,发光字,灯光,亮化,电子显示屏",
		"center":"易俗河镇(县政府驻地)",
		"center_gps":"27.778729,112.962392"
	},
	"message":"ok",
	"results":[
		{
			"area":"湘潭县",
			"uid":"3cfbfa129313876f2ee67bab",
			"address":"湘潭市湘潭县大鹏中路与牡丹路交叉路口西南侧(湘潭县行政效能监察中心南侧)",
			"province":"湖南省",
			"city":"湘潭市",
			"detail_info":{
				"detail_url":"http://api.map.baidu.com/place/detail?uid=3cfbfa129313876f2ee67bab&output=html&source=placeapi_v2",
				"distance":874,
				"children":[],
				"tag":"公司企业;公司",
				"type":"enterprise"
			},
			"name":"优饮图文广告",
			"location":{
				"lng":112.956399,
				"lat":27.784533
			},
			"telephone":"17369228808",
			"detail":1
		},
		{
			"area":"湘潭县",
			"uid":"177a5229c81e51e7dbecedf0",
			"address":"湖南省湘潭市湘潭县贵竹北路西侧8号附近",
			"province":"湖南省",
			"city":"湘潭市",
			"detail_info":{
				"detail_url":"http://api.map.baidu.com/place/detail?uid=177a5229c81e51e7dbecedf0&output=html&source=placeapi_v2",
				"distance":2447,
				"children":[],
				"tag":"公司企业;公司",
				"type":"enterprise"
			},
			"name":"奕佳图文广告",
			"location":{
				"lng":112.981978,
				"lat":27.792301
			},
			"telephone":"17700238565",
			"detail":1,
			"street_id":"177a5229c81e51e7dbecedf0"
		},
		{
			"area":"湘潭县",
			"uid":"04ecb9b485db459e4251c0c6",
			"address":"易俗河镇凤凰中路550号(凯旋国际对面)",
			"province":"湖南省",
			"city":"湘潭市",
			"detail_info":{
				"detail_url":"http://api.map.baidu.com/place/detail?uid=04ecb9b485db459e4251c0c6&output=html&source=placeapi_v2",
				"distance":1584,
				"children":[],
				"tag":"公司企业;公司",
				"type":"life",
				"image_num":"4"
			},
			"name":"天易图文广告",
			"location":{
				"lng":112.962996,
				"lat":27.792969
			},
			"telephone":"17773256005",
			"detail":1,
			"street_id":"04ecb9b485db459e4251c0c6"
		},
		{
			"area":"湘潭县",
			"uid":"3d501aa61046fcb6950319ab",
			"address":"湘潭市湘潭县凤凰中路与紫薇北路交叉路口往东北约100米(梧桐小区)",
			"province":"湖南省",
			"city":"湘潭市",
			"detail_info":{
				"detail_url":"http://api.map.baidu.com/place/detail?uid=3d501aa61046fcb6950319ab&output=html&source=placeapi_v2",
				"distance":1562,
				"children":[],
				"tag":"公司企业;公司",
				"type":"enterprise"
			},
			"name":"易美广告图文",
			"location":{
				"lng":112.962412,
				"lat":27.792777
			},
			"detail":1
		}
	],
	"status":0
}