{
	"total":191,
	"param":{
		"keywords":"广告,图文,招牌,打印,复印,发光字,灯光,亮化,电子显示屏",
		"center":"易俗河镇(县政府驻地)",
		"center_gps":"27.778729,112.962392"
	},
	"message":"ok",
	"results":[
		{
			"area":"湘潭县",
			"uid":"b88a629e6d2947280d3dda94",
			"address":"易俗河镇瑞莲路交警大队219号",
			"province":"湖南省",
			"city":"湘潭市",
			"detail_info":{
				"detail_url":"http://api.map.baidu.com/place/detail?uid=b88a629e6d2947280d3dda94&output=html&source=placeapi_v2",
				"distance":919,
				"children":[],
				"tag":"公司企业;公司",
				"type":"enterprise"
			},
			"name":"金辉广告",
			"location":{
				"lng":112.954454,
				"lat":27.783098
			},
			"detail":1
		},
		{
			"area":"湘潭县",
			"uid":"93668e2244245797d2f49e3c",
			"address":"湘潭市湘潭县大鹏中路与紫薇南路交叉路口西侧(紫薇小区东南侧)",
			"province":"湖南省",
			"city":"湘潭市",
			"detail_info":{
				"detail_url":"http://api.map.baidu.com/place/detail?uid=93668e2244245797d2f49e3c&output=html&source=placeapi_v2",
				"distance":730,
				"children":[],
				"tag":"公司企业;公司",
				"type":"enterprise"
			},
			"name":"思杰广告",
			"location":{
				"lng":112.963219,
				"lat":27.785254
			},
			"telephone":"13875260405",
			"detail":1,
			"street_id":"93668e2244245797d2f49e3c"
		},
		{
			"area":"湘潭县",
			"uid":"a45e9af37ac9a708f7b916b1",
			"address":"大鹏中路与牡丹路交叉口东100米",
			"province":"湖南省",
			"city":"湘潭市",
			"detail_info":{
				"detail_url":"http://api.map.baidu.com/place/detail?uid=a45e9af37ac9a708f7b916b1&output=html&source=placeapi_v2",
				"distance":802,
				"children":[],
				"tag":"公司企业;公司",
				"type":"enterprise"
			},
			"name":"华兴广告(大鹏中路)",
			"location":{
				"lng":112.957443,
				"lat":27.784469
			},
			"telephone":"(0731)57881161",
			"detail":1,
			"street_id":"a45e9af37ac9a708f7b916b1"
		},
		{
			"area":"湘潭县",
			"uid":"6c9968f742c5a2f6a4c75639",
			"address":"大鹏中路625号",
			"province":"湖南省",
			"city":"湘潭市",
			"detail_info":{
				"detail_url":"http://api.map.baidu.com/place/detail?uid=6c9968f742c5a2f6a4c75639&output=html&source=placeapi_v2",
				"distance":880,
				"navi_location":{
					"lng":112.95511467425,
					"lat":27.783736186673
				},
				"children":[],
				"tag":"生活服务;图文快印店",
				"overall_rating":"3.0",
				"type":"life",
				"image_num":"1"
			},
			"name":"重成图文",
			"location":{
				"lng":112.95528,
				"lat":27.783535
			},
			"telephone":"13973248986",
			"detail":1,
			"street_id":"6c9968f742c5a2f6a4c75639"
		},
		{
			"area":"湘潭县",
			"uid":"cbac261b984b18b6932ca3dc",
			"address":"湖南省湘潭市湘潭县玉兰中路188号东北70米",
			"province":"湖南省",
			"city":"湘潭市",
			"detail_info":{
				"detail_url":"http://api.map.baidu.com/place/detail?uid=cbac261b984b18b6932ca3dc&output=html&source=placeapi_v2",
				"distance":1052,
				"children":[],
				"tag":"公司企业;公司",
				"type":"enterprise"
			},
			"name":"江海广告",
			"location":{
				"lng":112.952511,
				"lat":27.782361
			},
			"detail":1
		},
		{
			"area":"湘潭县",
			"uid":"3d501aa61046fcb6950319ab",
			"address":"湘潭市湘潭县凤凰中路与紫薇北路交叉路口往东北约100米(梧桐小区)",
			"province":"湖南省",
			"city":"湘潭市",
			"detail_info":{
				"detail_url":"http://api.map.baidu.com/place/detail?uid=3d501aa61046fcb6950319ab&output=html&source=placeapi_v2",
				"distance":1562,
				"children":[],
				"tag":"公司企业;公司",
				"type":"enterprise"
			},
			"name":"易美广告图文",
			"location":{
				"lng":112.962412,
				"lat":27.792777
			},
			"detail":1
		},
		{
			"area":"湘潭县",
			"uid":"1a318d04799a88422902e138",
			"address":"易俗河镇易俗河银杏南路杏丹二路杜鹃生活小区14栋",
			"province":"湖南省",
			"city":"湘潭市",
			"detail_info":{
				"detail_url":"http://api.map.baidu.com/place/detail?uid=1a318d04799a88422902e138&output=html&source=placeapi_v2",
				"distance":1185,
				"children":[],
				"tag":"公司企业;公司",
				"type":"enterprise"
			},
			"name":"宏兴图文广告",
			"location":{
				"lng":112.954267,
				"lat":27.786609
			},
			"telephone":"15173230211",
			"detail":1
		},
		{
			"area":"湘潭县",
			"uid":"2fc18c09b564eb9dae31e52a",
			"address":"湖南省湘潭市湘潭县玉兰中路186号北100米",
			"province":"湖南省",
			"city":"湘潭市",
			"detail_info":{
				"detail_url":"http://api.map.baidu.com/place/detail?uid=2fc18c09b564eb9dae31e52a&output=html&source=placeapi_v2",
				"distance":1127,
				"children":[],
				"tag":"公司企业;公司",
				"type":"enterprise"
			},
			"name":"友依佳图文广告",
			"location":{
				"lng":112.951836,
				"lat":27.782677
			},
			"detail":1
		},
		{
			"area":"湘潭县",
			"uid":"06d21b73a58122e425d2bb61",
			"address":"湖南省湘潭市湘潭县贵竹中路",
			"province":"湖南省",
			"city":"湘潭市",
			"detail_info":{
				"detail_url":"http://api.map.baidu.com/place/detail?uid=06d21b73a58122e425d2bb61&output=html&source=placeapi_v2",
				"distance":1813,
				"navi_location":{
					"lng":112.98081673817,
					"lat":27.77679555664
				},
				"children":[],
				"tag":"公司企业;公司",
				"type":"enterprise"
			},
			"name":"宇宸文体广告",
			"location":{
				"lng":112.98071,
				"lat":27.776894
			},
			"detail":1
		},
		{
			"area":"湘潭县",
			"uid":"88f014ca6f2b13b43fe231e5",
			"address":"易俗河镇易俗河海棠北路38号",
			"province":"湖南省",
			"city":"湘潭市",
			"detail_info":{
				"detail_url":"http://api.map.baidu.com/place/detail?uid=88f014ca6f2b13b43fe231e5&output=html&source=placeapi_v2",
				"distance":1098,
				"navi_location":{
					"lng":112.96863806902,
					"lat":27.786838931948
				},
				"children":[],
				"tag":"公司企业;公司",
				"type":"enterprise"
			},
			"name":"三品风尚广告策划",
			"location":{
				"lng":112.968879,
				"lat":27.786766
			},
			"detail":1,
			"street_id":"88f014ca6f2b13b43fe231e5"
		}
	],
	"status":0
}