{
	"total":191,
	"param":{
		"keywords":"广告,图文,招牌,打印,复印,发光字,灯光,亮化,电子显示屏",
		"center":"易俗河镇(县政府驻地)",
		"center_gps":"27.778729,112.962392"
	},
	"message":"ok",
	"results":[
		{
			"area":"湘潭县",
			"uid":"9c1541b17d3ef1666f3e1b15",
			"address":"湘潭市湘潭县云龙中路与雪松南路交叉路口往东北约50米(湘潭县人力资源和社会保障局西侧)",
			"province":"湖南省",
			"city":"湘潭市",
			"detail_info":{
				"detail_url":"http://api.map.baidu.com/place/detail?uid=9c1541b17d3ef1666f3e1b15&output=html&source=placeapi_v2",
				"distance":162,
				"children":[],
				"tag":"生活服务;图文快印店",
				"type":"life",
				"image_num":"1"
			},
			"name":"红日中文印刷",
			"location":{
				"lng":112.963332,
				"lat":27.77993
			},
			"detail":1
		},
		{
			"area":"湘潭县",
			"uid":"31f799a794addcd74c6d461c",
			"address":"湘潭市湘潭县云龙中路216号",
			"province":"湖南省",
			"city":"湘潭市",
			"detail_info":{
				"detail_url":"http://api.map.baidu.com/place/detail?uid=31f799a794addcd74c6d461c&output=html&source=placeapi_v2",
				"distance":175,
				"children":[],
				"tag":"生活服务;图文快印店",
				"type":"life",
				"image_num":"4"
			},
			"name":"诚信印刷",
			"location":{
				"lng":112.961628,
				"lat":27.780152
			},
			"telephone":"13787320921",
			"detail":1,
			"street_id":"31f799a794addcd74c6d461c"
		},
		{
			"area":"湘潭县",
			"uid":"72b9621ff93351384c6d46fc",
			"address":"易俗河镇雪松中路22号(现代医院往左50米)",
			"province":"湖南省",
			"city":"湘潭市",
			"detail_info":{
				"detail_url":"http://api.map.baidu.com/place/detail?uid=72b9621ff93351384c6d46fc&output=html&source=placeapi_v2",
				"distance":196,
				"navi_location":{
					"lng":112.96296335095,
					"lat":27.780395776848
				},
				"children":[],
				"tag":"生活服务;图文快印店",
				"type":"life",
				"image_num":"3"
			},
			"name":"洋洋图文",
			"location":{
				"lng":112.963105,
				"lat":27.780379
			},
			"telephone":"13135328650",
			"detail":1
		},
		{
			"area":"湘潭县",
			"uid":"7e72373bf4f6e3df2d47338d",
			"address":"湘潭市湘潭县金松五路与云鹏一路交叉路口西南侧(广告楼东北侧约100米)",
			"province":"湖南省",
			"city":"湘潭市",
			"detail_info":{
				"detail_url":"http://api.map.baidu.com/place/detail?uid=7e72373bf4f6e3df2d47338d&output=html&source=placeapi_v2",
				"distance":364,
				"children":[],
				"tag":"公司企业;公司",
				"type":"enterprise"
			},
			"name":"伊行图文广告",
			"location":{
				"lng":112.95989,
				"lat":27.781151
			},
			"detail":1
		},
		{
			"area":"湘潭县",
			"uid":"a7a1c74220bef0c8593ac804",
			"address":"湘潭市湘潭县云龙中路450号",
			"province":"湖南省",
			"city":"湘潭市",
			"detail_info":{
				"comment_num":"1",
				"detail_url":"http://api.map.baidu.com/place/detail?uid=a7a1c74220bef0c8593ac804&output=html&source=placeapi_v2",
				"distance":499,
				"children":[],
				"tag":"生活服务;图文快印店",
				"overall_rating":"0.0",
				"type":"life",
				"image_num":"6"
			},
			"name":"新洋文印室",
			"location":{
				"lng":112.957435,
				"lat":27.779714
			},
			"telephone":"13467939063,18627325602",
			"detail":1,
			"street_id":"a7a1c74220bef0c8593ac804"
		}
	],
	"status":0
}