{
	"total":191,
	"param":{
		"keywords":"广告,图文,招牌,打印,复印,发光字,灯光,亮化,电子显示屏",
		"center":"易俗河镇(县政府驻地)",
		"center_gps":"27.778729,112.962392"
	},
	"message":"ok",
	"results":[
		{
			"area":"湘潭县",
			"uid":"612b6d35ab035323a6c7565c",
			"address":"湖南省湘潭市湘潭县海棠北路379号",
			"province":"湖南省",
			"city":"湘潭市",
			"detail_info":{
				"comment_num":"1",
				"detail_url":"http://api.map.baidu.com/place/detail?uid=612b6d35ab035323a6c7565c&output=html&source=placeapi_v2",
				"distance":1582,
				"children":[],
				"tag":"公司企业;公司",
				"overall_rating":"0.0",
				"type":"enterprise"
			},
			"name":"酷锐图文广告",
			"location":{
				"lng":112.969832,
				"lat":27.791347
			},
			"detail":1
		},
		{
			"area":"湘潭县",
			"uid":"4d398a7da5bcbdfd081cc7fc",
			"address":"凤凰中路659号",
			"province":"湖南省",
			"city":"湘潭市",
			"detail_info":{
				"detail_url":"http://api.map.baidu.com/place/detail?uid=4d398a7da5bcbdfd081cc7fc&output=html&source=placeapi_v2",
				"distance":1445,
				"children":[],
				"tag":"公司企业;公司",
				"overall_rating":"0.0",
				"type":"life",
				"image_num":"5"
			},
			"name":"新湘图文广告",
			"location":{
				"lng":112.961907,
				"lat":27.791725
			},
			"detail":1,
			"street_id":"4d398a7da5bcbdfd081cc7fc"
		},
		{
			"area":"湘潭县",
			"uid":"9c243eb5a067115a79b55ceb",
			"address":"易俗河镇金羚路65号",
			"province":"湖南省",
			"city":"湘潭市",
			"detail_info":{
				"comment_num":"1",
				"detail_url":"http://api.map.baidu.com/place/detail?uid=9c243eb5a067115a79b55ceb&output=html&source=placeapi_v2",
				"distance":1054,
				"children":[],
				"tag":"汽车服务;汽车美容",
				"overall_rating":"0.0",
				"type":"life",
				"image_num":"4"
			},
			"name":"新概念汽车俱乐部",
			"location":{
				"lng":112.959651,
				"lat":27.787893
			},
			"detail":1,
			"street_id":"9c243eb5a067115a79b55ceb"
		}
	],
	"status":0
}