{
	"total":191,
	"param":{
		"keywords":"广告,图文,招牌,打印,复印,发光字,灯光,亮化,电子显示屏",
		"center":"易俗河镇(县政府驻地)",
		"center_gps":"27.778729,112.962392"
	},
	"message":"ok",
	"results":[
		{
			"area":"湘潭县",
			"uid":"4a0efc548a82f753715e8062",
			"address":"金羚路270号(金羚路与紫薇南路交口处)",
			"province":"湖南省",
			"city":"湘潭市",
			"detail_info":{
				"comment_num":"2",
				"detail_url":"http://api.map.baidu.com/place/detail?uid=4a0efc548a82f753715e8062&output=html&source=placeapi_v2",
				"distance":1038,
				"children":[],
				"tag":"美食;中餐厅",
				"overall_rating":"4.5",
				"type":"cater"
			},
			"name":"十八香美食",
			"location":{
				"lng":112.962931,
				"lat":27.788052
			},
			"detail":1
		},
		{
			"area":"湘潭县",
			"uid":"439ef49401168ca9b21e3678",
			"address":"湘潭市湘潭县滨江中路与海棠北路交叉路口往西南约50米(洛口渔香)",
			"province":"湖南省",
			"city":"湘潭市",
			"detail_info":{
				"detail_url":"http://api.map.baidu.com/place/detail?uid=439ef49401168ca9b21e3678&output=html&source=placeapi_v2",
				"distance":2521,
				"children":[],
				"tag":"美食;中餐厅",
				"type":"cater"
			},
			"name":"招牌龙虾",
			"location":{
				"lng":112.970537,
				"lat":27.800227
			},
			"detail":1
		},
		{
			"area":"湘潭县",
			"uid":"72b9621ff93351384c6d46fc",
			"address":"易俗河镇雪松中路22号(现代医院往左50米)",
			"province":"湖南省",
			"city":"湘潭市",
			"detail_info":{
				"detail_url":"http://api.map.baidu.com/place/detail?uid=72b9621ff93351384c6d46fc&output=html&source=placeapi_v2",
				"distance":196,
				"navi_location":{
					"lng":112.96296335095,
					"lat":27.780395776848
				},
				"children":[],
				"tag":"生活服务;图文快印店",
				"type":"life",
				"image_num":"3"
			},
			"name":"洋洋图文",
			"location":{
				"lng":112.963105,
				"lat":27.780379
			},
			"telephone":"13135328650",
			"detail":1
		},
		{
			"area":"湘潭县",
			"uid":"a7a1c74220bef0c8593ac804",
			"address":"湘潭市湘潭县云龙中路450号",
			"province":"湖南省",
			"city":"湘潭市",
			"detail_info":{
				"comment_num":"1",
				"detail_url":"http://api.map.baidu.com/place/detail?uid=a7a1c74220bef0c8593ac804&output=html&source=placeapi_v2",
				"distance":499,
				"children":[],
				"tag":"生活服务;图文快印店",
				"overall_rating":"0.0",
				"type":"life",
				"image_num":"6"
			},
			"name":"新洋文印室",
			"location":{
				"lng":112.957435,
				"lat":27.779714
			},
			"telephone":"13467939063,18627325602",
			"detail":1,
			"street_id":"a7a1c74220bef0c8593ac804"
		},
		{
			"area":"湘潭县",
			"uid":"6c9968f742c5a2f6a4c75639",
			"address":"大鹏中路625号",
			"province":"湖南省",
			"city":"湘潭市",
			"detail_info":{
				"detail_url":"http://api.map.baidu.com/place/detail?uid=6c9968f742c5a2f6a4c75639&output=html&source=placeapi_v2",
				"distance":880,
				"navi_location":{
					"lng":112.95511467425,
					"lat":27.783736186673
				},
				"children":[],
				"tag":"生活服务;图文快印店",
				"overall_rating":"3.0",
				"type":"life",
				"image_num":"1"
			},
			"name":"重成图文",
			"location":{
				"lng":112.95528,
				"lat":27.783535
			},
			"telephone":"13973248986",
			"detail":1,
			"street_id":"6c9968f742c5a2f6a4c75639"
		},
		{
			"area":"湘潭县",
			"uid":"c33cc65774204a7386420e79",
			"address":"杜鹃路30",
			"province":"湖南省",
			"city":"湘潭市",
			"detail_info":{
				"detail_url":"http://api.map.baidu.com/place/detail?uid=c33cc65774204a7386420e79&output=html&source=placeapi_v2",
				"distance":1030,
				"children":[],
				"tag":"生活服务;图文快印店",
				"type":"life",
				"image_num":"2"
			},
			"name":"湘之杰图文工作室",
			"location":{
				"lng":112.955496,
				"lat":27.785708
			},
			"detail":1,
			"street_id":"c33cc65774204a7386420e79"
		},
		{
			"area":"湘潭县",
			"uid":"41e1a0ffd02efe3b4c2fdff5",
			"address":"湘潭市湘潭县杏丹二路与杜鹃路交叉路口西南侧(杜鹃生活小区5号楼)",
			"province":"湖南省",
			"city":"湘潭市",
			"detail_info":{
				"detail_url":"http://api.map.baidu.com/place/detail?uid=41e1a0ffd02efe3b4c2fdff5&output=html&source=placeapi_v2",
				"distance":1147,
				"children":[],
				"tag":"生活服务;图文快印店",
				"type":"life",
				"image_num":"3"
			},
			"name":"吉达快印",
			"location":{
				"lng":112.954801,
				"lat":27.78656
			},
			"detail":1,
			"street_id":"41e1a0ffd02efe3b4c2fdff5"
		},
		{
			"area":"湘潭县",
			"uid":"2064f4814594c6ae28201ad6",
			"address":"湘潭市湘潭县凤凰中路860号",
			"province":"湖南省",
			"city":"湘潭市",
			"detail_info":{
				"comment_num":"1",
				"detail_url":"http://api.map.baidu.com/place/detail?uid=2064f4814594c6ae28201ad6&output=html&source=placeapi_v2",
				"distance":1422,
				"children":[],
				"tag":"生活服务;图文快印店",
				"overall_rating":"5.0",
				"type":"enterprise"
			},
			"name":"湘印图文广告",
			"location":{
				"lng":112.95877,
				"lat":27.791117
			},
			"telephone":"18073218593",
			"detail":1,
			"street_id":"2064f4814594c6ae28201ad6"
		},
		{
			"area":"湘潭县",
			"uid":"b1f34c744f8fba649fec2b13",
			"address":"湘潭市湘潭县紫薇南路与凤凰中路交叉路口东南侧(梧桐小区南侧约50米)",
			"province":"湖南省",
			"city":"湘潭市",
			"detail_info":{
				"detail_url":"http://api.map.baidu.com/place/detail?uid=b1f34c744f8fba649fec2b13&output=html&source=placeapi_v2",
				"distance":1450,
				"children":[],
				"tag":"生活服务;图文快印店",
				"type":"life",
				"image_num":"2"
			},
			"name":"新洋图文",
			"location":{
				"lng":112.96181,
				"lat":27.791763
			},
			"telephone":"18608481392",
			"detail":1
		},
		{
			"area":"湘潭县",
			"uid":"c8282d861b526b96ab059d73",
			"address":"凤凰中路400",
			"province":"湖南省",
			"city":"湘潭市",
			"detail_info":{
				"comment_num":"5",
				"detail_url":"http://api.map.baidu.com/place/detail?uid=c8282d861b526b96ab059d73&output=html&source=placeapi_v2",
				"distance":1698,
				"children":[],
				"tag":"生活服务;图文快印店",
				"overall_rating":"5.0",
				"type":"life",
				"image_num":"9"
			},
			"name":"一新图文",
			"location":{
				"lng":112.965021,
				"lat":27.79383
			},
			"telephone":"13087229141,(0731)57884168",
			"detail":1,
			"street_id":"c8282d861b526b96ab059d73"
		}
	],
	"status":0
}