{
	"total":191,
	"param":{
		"keywords":"广告,图文,招牌,打印,复印,发光字,灯光,亮化,电子显示屏",
		"center":"易俗河镇(县政府驻地)",
		"center_gps":"27.778729,112.962392"
	},
	"message":"ok",
	"results":[
		{
			"area":"湘潭县",
			"uid":"d02d047fa9884f1cc2f1cf11",
			"address":"银杏南路48附近",
			"province":"湖南省",
			"city":"湘潭市",
			"detail_info":{
				"detail_url":"http://api.map.baidu.com/place/detail?uid=d02d047fa9884f1cc2f1cf11&output=html&source=placeapi_v2",
				"distance":1019,
				"children":[],
				"tag":"公司企业;公司",
				"type":"enterprise"
			},
			"name":"天友广告",
			"location":{
				"lng":112.954861,
				"lat":27.785025
			},
			"telephone":"13786222118",
			"detail":1
		},
		{
			"area":"湘潭县",
			"uid":"1ed3caf1f6120560b42655f4",
			"address":"湘潭县易俗河镇凤凰中路步步高同丰大厦A座1206室",
			"province":"湖南省",
			"city":"湘潭市",
			"detail_info":{
				"detail_url":"http://api.map.baidu.com/place/detail?uid=1ed3caf1f6120560b42655f4&output=html&source=placeapi_v2",
				"distance":1431,
				"children":[],
				"price":"0.0",
				"tag":"文化传媒;其他",
				"type":"enterprise"
			},
			"name":"湖南广尚广告传媒有限公司",
			"location":{
				"lng":112.954355,
				"lat":27.789456
			},
			"telephone":"15675206468",
			"detail":1
		},
		{
			"area":"湘潭县",
			"uid":"d60d74bcf2818ddfc61b7550",
			"address":"湘潭市湘潭县杨柳北路与学区路交叉路口西侧(天易金霞小学南侧)",
			"province":"湖南省",
			"city":"湘潭市",
			"detail_info":{
				"detail_url":"http://api.map.baidu.com/place/detail?uid=d60d74bcf2818ddfc61b7550&output=html&source=placeapi_v2",
				"distance":1743,
				"children":[],
				"tag":"公司企业;公司",
				"type":"enterprise"
			},
			"name":"新时代国文广告",
			"location":{
				"lng":112.976139,
				"lat":27.788618
			},
			"detail":1
		},
		{
			"area":"湘潭县",
			"uid":"8fe75a097f42435004026fb5",
			"address":"湖南省湘潭市湘潭县凤凰中路831",
			"province":"湖南省",
			"city":"湘潭市",
			"detail_info":{
				"detail_url":"http://api.map.baidu.com/place/detail?uid=8fe75a097f42435004026fb5&output=html&source=placeapi_v2",
				"distance":1362,
				"children":[],
				"tag":"公司企业;公司",
				"type":"enterprise"
			},
			"name":"飞达广告(凤凰中路)",
			"location":{
				"lng":112.959296,
				"lat":27.790669
			},
			"telephone":"13875227771,15973232388",
			"detail":1,
			"street_id":"8fe75a097f42435004026fb5"
		},
		{
			"area":"湘潭县",
			"uid":"c33cc65774204a7386420e79",
			"address":"杜鹃路30",
			"province":"湖南省",
			"city":"湘潭市",
			"detail_info":{
				"detail_url":"http://api.map.baidu.com/place/detail?uid=c33cc65774204a7386420e79&output=html&source=placeapi_v2",
				"distance":1030,
				"children":[],
				"tag":"生活服务;图文快印店",
				"type":"life",
				"image_num":"2"
			},
			"name":"湘之杰图文工作室",
			"location":{
				"lng":112.955496,
				"lat":27.785708
			},
			"detail":1,
			"street_id":"c33cc65774204a7386420e79"
		},
		{
			"area":"湘潭县",
			"uid":"16e43815842b02efede4a501",
			"address":"雪松中路506号",
			"province":"湖南省",
			"city":"湘潭市",
			"detail_info":{
				"detail_url":"http://api.map.baidu.com/place/detail?uid=16e43815842b02efede4a501&output=html&source=placeapi_v2",
				"distance":1088,
				"children":[],
				"tag":"公司企业;公司",
				"type":"enterprise"
			},
			"name":"天艺广告(雪松中路)",
			"location":{
				"lng":112.966749,
				"lat":27.787725
			},
			"telephone":"13973222658",
			"detail":1,
			"street_id":"16e43815842b02efede4a501"
		},
		{
			"area":"湘潭县",
			"uid":"79ff982f6bb033d9a7da39a6",
			"address":"湘潭市湘潭县紫薇南路165号",
			"province":"湖南省",
			"city":"湘潭市",
			"detail_info":{
				"detail_url":"http://api.map.baidu.com/place/detail?uid=79ff982f6bb033d9a7da39a6&output=html&source=placeapi_v2",
				"distance":1096,
				"children":[],
				"tag":"公司企业;公司",
				"type":"enterprise"
			},
			"name":"创佳广告",
			"location":{
				"lng":112.962875,
				"lat":27.788578
			},
			"detail":1,
			"street_id":"79ff982f6bb033d9a7da39a6"
		},
		{
			"area":"湘潭县",
			"uid":"1fc0ecab3bba7d74e5e9657c",
			"address":"雪松中路661",
			"province":"湖南省",
			"city":"湘潭市",
			"detail_info":{
				"detail_url":"http://api.map.baidu.com/place/detail?uid=1fc0ecab3bba7d74e5e9657c&output=html&source=placeapi_v2",
				"distance":1357,
				"navi_location":{
					"lng":112.96722245452,
					"lat":27.790221105523
				},
				"children":[],
				"tag":"公司企业;公司",
				"type":"enterprise"
			},
			"name":"湘礼广告",
			"location":{
				"lng":112.967009,
				"lat":27.790232
			},
			"telephone":"13973294063,13467927570",
			"detail":1,
			"street_id":"1fc0ecab3bba7d74e5e9657c"
		},
		{
			"area":"湘潭县",
			"uid":"0036391754e28454932ca314",
			"address":"湘潭市湘潭县金桂南路578号",
			"province":"湖南省",
			"city":"湘潭市",
			"detail_info":{
				"comment_num":"1",
				"detail_url":"http://api.map.baidu.com/place/detail?uid=0036391754e28454932ca314&output=html&source=placeapi_v2",
				"distance":1192,
				"children":[],
				"tag":"公司企业;公司",
				"overall_rating":"5.0",
				"type":"enterprise"
			},
			"name":"精美广告",
			"location":{
				"lng":112.958521,
				"lat":27.788896
			},
			"telephone":"(0731)57885013,13786212188,18570382688",
			"detail":1,
			"street_id":"0036391754e28454932ca314"
		},
		{
			"area":"湘潭县",
			"uid":"53ba5055f3f3af17afcb6695",
			"address":"易俗河镇金羚东路67号",
			"province":"湖南省",
			"city":"湘潭市",
			"detail_info":{
				"detail_url":"http://api.map.baidu.com/place/detail?uid=53ba5055f3f3af17afcb6695&output=html&source=placeapi_v2",
				"distance":1225,
				"children":[],
				"tag":"公司企业;公司",
				"type":"enterprise"
			},
			"name":"红湘广告",
			"location":{
				"lng":112.965833,
				"lat":27.789326
			},
			"detail":1
		}
	],
	"status":0
}