{
	"total":191,
	"param":{
		"keywords":"广告,图文,招牌,打印,复印,发光字,灯光,亮化,电子显示屏",
		"center":"易俗河镇(县政府驻地)",
		"center_gps":"27.778729,112.962392"
	},
	"message":"ok",
	"results":[
		{
			"area":"湘潭县",
			"uid":"f58fb29ca5939903a8f0cd20",
			"address":"湘潭市湘潭县玉兰中路与凤凰西路交叉路口往东南约50米(诚信购物广场北侧)",
			"province":"湖南省",
			"city":"湘潭市",
			"detail_info":{
				"detail_url":"http://api.map.baidu.com/place/detail?uid=f58fb29ca5939903a8f0cd20&output=html&source=placeapi_v2",
				"distance":1540,
				"children":[],
				"tag":"生活服务;图文快印店",
				"type":"life",
				"image_num":"2"
			},
			"name":"Q族数码照相文印店",
			"location":{
				"lng":112.948998,
				"lat":27.785904
			},
			"telephone":"13786219570",
			"detail":1
		},
		{
			"area":"湘潭县",
			"uid":"3cfbfa129313876f2ee67bab",
			"address":"湘潭市湘潭县大鹏中路与牡丹路交叉路口西南侧(湘潭县行政效能监察中心南侧)",
			"province":"湖南省",
			"city":"湘潭市",
			"detail_info":{
				"detail_url":"http://api.map.baidu.com/place/detail?uid=3cfbfa129313876f2ee67bab&output=html&source=placeapi_v2",
				"distance":874,
				"children":[],
				"tag":"公司企业;公司",
				"type":"enterprise"
			},
			"name":"优饮图文广告",
			"location":{
				"lng":112.956399,
				"lat":27.784533
			},
			"telephone":"17369228808",
			"detail":1
		},
		{
			"area":"湘潭县",
			"uid":"1a318d04799a88422902e138",
			"address":"易俗河镇易俗河银杏南路杏丹二路杜鹃生活小区14栋",
			"province":"湖南省",
			"city":"湘潭市",
			"detail_info":{
				"detail_url":"http://api.map.baidu.com/place/detail?uid=1a318d04799a88422902e138&output=html&source=placeapi_v2",
				"distance":1185,
				"children":[],
				"tag":"公司企业;公司",
				"type":"enterprise"
			},
			"name":"宏兴图文广告",
			"location":{
				"lng":112.954267,
				"lat":27.786609
			},
			"telephone":"15173230211",
			"detail":1
		},
		{
			"area":"湘潭县",
			"uid":"2df6f753f4466114b020a8b3",
			"address":"易俗河镇玉兰南路777号",
			"province":"湖南省",
			"city":"湘潭市",
			"detail_info":{
				"detail_url":"http://api.map.baidu.com/place/detail?uid=2df6f753f4466114b020a8b3&output=html&source=placeapi_v2",
				"distance":677,
				"children":[],
				"tag":"生活服务;照相馆",
				"type":"life",
				"image_num":"1"
			},
			"name":"漂亮宝贝儿童摄影城堡",
			"location":{
				"lng":112.958266,
				"lat":27.773848
			},
			"detail":1
		},
		{
			"area":"湘潭县",
			"uid":"612b6d35ab035323a6c7565c",
			"address":"湖南省湘潭市湘潭县海棠北路379号",
			"province":"湖南省",
			"city":"湘潭市",
			"detail_info":{
				"comment_num":"1",
				"detail_url":"http://api.map.baidu.com/place/detail?uid=612b6d35ab035323a6c7565c&output=html&source=placeapi_v2",
				"distance":1582,
				"children":[],
				"tag":"公司企业;公司",
				"overall_rating":"0.0",
				"type":"enterprise"
			},
			"name":"酷锐图文广告",
			"location":{
				"lng":112.969832,
				"lat":27.791347
			},
			"detail":1
		},
		{
			"area":"湘潭县",
			"uid":"2fc18c09b564eb9dae31e52a",
			"address":"湖南省湘潭市湘潭县玉兰中路186号北100米",
			"province":"湖南省",
			"city":"湘潭市",
			"detail_info":{
				"detail_url":"http://api.map.baidu.com/place/detail?uid=2fc18c09b564eb9dae31e52a&output=html&source=placeapi_v2",
				"distance":1127,
				"children":[],
				"tag":"公司企业;公司",
				"type":"enterprise"
			},
			"name":"友依佳图文广告",
			"location":{
				"lng":112.951836,
				"lat":27.782677
			},
			"detail":1
		},
		{
			"area":"湘潭县",
			"uid":"d90747fe02a5b55e14b54b0f",
			"address":"凤凰中路257号",
			"province":"湖南省",
			"city":"湘潭市",
			"detail_info":{
				"detail_url":"http://api.map.baidu.com/place/detail?uid=d90747fe02a5b55e14b54b0f&output=html&source=placeapi_v2",
				"distance":1850,
				"children":[],
				"tag":"公司企业;公司",
				"type":"enterprise"
			},
			"name":"博洋广告图文",
			"location":{
				"lng":112.968185,
				"lat":27.794566
			},
			"detail":1
		},
		{
			"area":"湘潭县",
			"uid":"04ecb9b485db459e4251c0c6",
			"address":"易俗河镇凤凰中路550号(凯旋国际对面)",
			"province":"湖南省",
			"city":"湘潭市",
			"detail_info":{
				"detail_url":"http://api.map.baidu.com/place/detail?uid=04ecb9b485db459e4251c0c6&output=html&source=placeapi_v2",
				"distance":1584,
				"children":[],
				"tag":"公司企业;公司",
				"type":"life",
				"image_num":"4"
			},
			"name":"天易图文广告",
			"location":{
				"lng":112.962996,
				"lat":27.792969
			},
			"telephone":"17773256005",
			"detail":1,
			"street_id":"04ecb9b485db459e4251c0c6"
		},
		{
			"area":"湘潭县",
			"uid":"3d501aa61046fcb6950319ab",
			"address":"湘潭市湘潭县凤凰中路与紫薇北路交叉路口往东北约100米(梧桐小区)",
			"province":"湖南省",
			"city":"湘潭市",
			"detail_info":{
				"detail_url":"http://api.map.baidu.com/place/detail?uid=3d501aa61046fcb6950319ab&output=html&source=placeapi_v2",
				"distance":1562,
				"children":[],
				"tag":"公司企业;公司",
				"type":"enterprise"
			},
			"name":"易美广告图文",
			"location":{
				"lng":112.962412,
				"lat":27.792777
			},
			"detail":1
		},
		{
			"area":"湘潭县",
			"uid":"177a5229c81e51e7dbecedf0",
			"address":"湖南省湘潭市湘潭县贵竹北路西侧8号附近",
			"province":"湖南省",
			"city":"湘潭市",
			"detail_info":{
				"detail_url":"http://api.map.baidu.com/place/detail?uid=177a5229c81e51e7dbecedf0&output=html&source=placeapi_v2",
				"distance":2447,
				"children":[],
				"tag":"公司企业;公司",
				"type":"enterprise"
			},
			"name":"奕佳图文广告",
			"location":{
				"lng":112.981978,
				"lat":27.792301
			},
			"telephone":"17700238565",
			"detail":1,
			"street_id":"177a5229c81e51e7dbecedf0"
		}
	],
	"status":0
}