{
	"total":191,
	"param":{
		"keywords":"广告,图文,招牌,打印,复印,发光字,灯光,亮化,电子显示屏",
		"center":"易俗河镇(县政府驻地)",
		"center_gps":"27.778729,112.962392"
	},
	"message":"ok",
	"results":[
		{
			"area":"湘潭县",
			"uid":"450b09ec1b9a2d138936ee07",
			"address":"湖南省湘潭市湘潭县凤凰路689号西北80米",
			"province":"湖南省",
			"city":"湘潭市",
			"detail_info":{
				"detail_url":"http://api.map.baidu.com/place/detail?uid=450b09ec1b9a2d138936ee07&output=html&source=placeapi_v2",
				"distance":1856,
				"children":[],
				"tag":"生活服务;图文快印店",
				"type":"life",
				"image_num":"3"
			},
			"name":"低调快印",
			"location":{
				"lng":112.967173,
				"lat":27.794879
			},
			"detail":1
		},
		{
			"area":"湘潭县",
			"uid":"b1f34c744f8fba649fec2b13",
			"address":"湘潭市湘潭县紫薇南路与凤凰中路交叉路口东南侧(梧桐小区南侧约50米)",
			"province":"湖南省",
			"city":"湘潭市",
			"detail_info":{
				"detail_url":"http://api.map.baidu.com/place/detail?uid=b1f34c744f8fba649fec2b13&output=html&source=placeapi_v2",
				"distance":1450,
				"children":[],
				"tag":"生活服务;图文快印店",
				"type":"life",
				"image_num":"2"
			},
			"name":"新洋图文",
			"location":{
				"lng":112.96181,
				"lat":27.791763
			},
			"telephone":"18608481392",
			"detail":1
		},
		{
			"area":"湘潭县",
			"uid":"1a318d04799a88422902e138",
			"address":"易俗河镇易俗河银杏南路杏丹二路杜鹃生活小区14栋",
			"province":"湖南省",
			"city":"湘潭市",
			"detail_info":{
				"detail_url":"http://api.map.baidu.com/place/detail?uid=1a318d04799a88422902e138&output=html&source=placeapi_v2",
				"distance":1185,
				"children":[],
				"tag":"公司企业;公司",
				"type":"enterprise"
			},
			"name":"宏兴图文广告",
			"location":{
				"lng":112.954267,
				"lat":27.786609
			},
			"telephone":"15173230211",
			"detail":1
		},
		{
			"area":"湘潭县",
			"uid":"2064f4814594c6ae28201ad6",
			"address":"湘潭市湘潭县凤凰中路860号",
			"province":"湖南省",
			"city":"湘潭市",
			"detail_info":{
				"comment_num":"1",
				"detail_url":"http://api.map.baidu.com/place/detail?uid=2064f4814594c6ae28201ad6&output=html&source=placeapi_v2",
				"distance":1422,
				"children":[],
				"tag":"生活服务;图文快印店",
				"overall_rating":"5.0",
				"type":"enterprise"
			},
			"name":"湘印图文广告",
			"location":{
				"lng":112.95877,
				"lat":27.791117
			},
			"telephone":"18073218593",
			"detail":1,
			"street_id":"2064f4814594c6ae28201ad6"
		},
		{
			"area":"湘潭县",
			"uid":"4725d6ea0bd238b97adbd2ea",
			"address":"湖南省湘潭市湘潭县麒麟路245号",
			"province":"湖南省",
			"city":"湘潭市",
			"detail_info":{
				"comment_num":"1",
				"detail_url":"http://api.map.baidu.com/place/detail?uid=4725d6ea0bd238b97adbd2ea&output=html&source=placeapi_v2",
				"distance":1889,
				"children":[],
				"tag":"生活服务;图文快印店",
				"overall_rating":"5.0",
				"type":"life",
				"image_num":"1"
			},
			"name":"富彩图文影像",
			"location":{
				"lng":112.975401,
				"lat":27.791228
			},
			"detail":1
		},
		{
			"area":"湘潭县",
			"uid":"2fc18c09b564eb9dae31e52a",
			"address":"湖南省湘潭市湘潭县玉兰中路186号北100米",
			"province":"湖南省",
			"city":"湘潭市",
			"detail_info":{
				"detail_url":"http://api.map.baidu.com/place/detail?uid=2fc18c09b564eb9dae31e52a&output=html&source=placeapi_v2",
				"distance":1127,
				"children":[],
				"tag":"公司企业;公司",
				"type":"enterprise"
			},
			"name":"友依佳图文广告",
			"location":{
				"lng":112.951836,
				"lat":27.782677
			},
			"detail":1
		},
		{
			"area":"湘潭县",
			"uid":"2df6f753f4466114b020a8b3",
			"address":"易俗河镇玉兰南路777号",
			"province":"湖南省",
			"city":"湘潭市",
			"detail_info":{
				"detail_url":"http://api.map.baidu.com/place/detail?uid=2df6f753f4466114b020a8b3&output=html&source=placeapi_v2",
				"distance":677,
				"children":[],
				"tag":"生活服务;照相馆",
				"type":"life",
				"image_num":"1"
			},
			"name":"漂亮宝贝儿童摄影城堡",
			"location":{
				"lng":112.958266,
				"lat":27.773848
			},
			"detail":1
		},
		{
			"area":"湘潭县",
			"uid":"d90747fe02a5b55e14b54b0f",
			"address":"凤凰中路257号",
			"province":"湖南省",
			"city":"湘潭市",
			"detail_info":{
				"detail_url":"http://api.map.baidu.com/place/detail?uid=d90747fe02a5b55e14b54b0f&output=html&source=placeapi_v2",
				"distance":1850,
				"children":[],
				"tag":"公司企业;公司",
				"type":"enterprise"
			},
			"name":"博洋广告图文",
			"location":{
				"lng":112.968185,
				"lat":27.794566
			},
			"detail":1
		}
	],
	"status":0
}