{
	"total":191,
	"param":{
		"keywords":"广告,图文,招牌,打印,复印,发光字,灯光,亮化,电子显示屏",
		"center":"易俗河镇(县政府驻地)",
		"center_gps":"27.778729,112.962392"
	},
	"message":"ok",
	"results":[
		{
			"area":"湘潭县",
			"uid":"7e72373bf4f6e3df2d47338d",
			"address":"湘潭市湘潭县金松五路与云鹏一路交叉路口西南侧(广告楼东北侧约100米)",
			"province":"湖南省",
			"city":"湘潭市",
			"detail_info":{
				"detail_url":"http://api.map.baidu.com/place/detail?uid=7e72373bf4f6e3df2d47338d&output=html&source=placeapi_v2",
				"distance":364,
				"children":[],
				"tag":"公司企业;公司",
				"type":"enterprise"
			},
			"name":"伊行图文广告",
			"location":{
				"lng":112.95989,
				"lat":27.781151
			},
			"detail":1
		},
		{
			"area":"湘潭县",
			"uid":"f1328756b75582d728b97ce6",
			"address":"湘潭市湘潭县金松五路与金桂南路交叉路口往东约50米(广告楼北侧约50米)",
			"province":"湖南省",
			"city":"湘潭市",
			"detail_info":{
				"detail_url":"http://api.map.baidu.com/place/detail?uid=f1328756b75582d728b97ce6&output=html&source=placeapi_v2",
				"distance":396,
				"children":[],
				"tag":"公司企业;公司",
				"type":"enterprise"
			},
			"name":"兴隆广告印务",
			"location":{
				"lng":112.959366,
				"lat":27.781091
			},
			"detail":1,
			"street_id":"f1328756b75582d728b97ce6"
		},
		{
			"area":"湘潭县",
			"uid":"014bdae600f00e142fb96d12",
			"address":"湘潭市湘潭县易俗河镇金桂南路187号(消防大队侧)",
			"province":"湖南省",
			"city":"湘潭市",
			"detail_info":{
				"detail_url":"http://api.map.baidu.com/place/detail?uid=014bdae600f00e142fb96d12&output=html&source=placeapi_v2",
				"distance":588,
				"children":[],
				"tag":"公司企业;公司",
				"type":"enterprise"
			},
			"name":"公章广告店",
			"location":{
				"lng":112.958318,
				"lat":27.782605
			},
			"detail":1
		},
		{
			"area":"湘潭县",
			"uid":"9d4ede36dc1de1fcd1f49ebd",
			"address":"湖南省湘潭市湘潭县易俗河镇金桂南路85号",
			"province":"湖南省",
			"city":"湘潭市",
			"detail_info":{
				"detail_url":"http://api.map.baidu.com/place/detail?uid=9d4ede36dc1de1fcd1f49ebd&output=html&source=placeapi_v2",
				"distance":461,
				"children":[],
				"tag":"公司企业;公司",
				"type":"enterprise"
			},
			"name":"佳美广告",
			"location":{
				"lng":112.958487,
				"lat":27.781025
			},
			"telephone":"15080786869",
			"detail":1,
			"street_id":"9d4ede36dc1de1fcd1f49ebd"
		},
		{
			"area":"湘潭县",
			"uid":"175e87b8df7e075ec9c3db03",
			"address":"易俗河玉兰南路887号(白猫旅社旁)",
			"province":"湖南省",
			"city":"湘潭市",
			"detail_info":{
				"detail_url":"http://api.map.baidu.com/place/detail?uid=175e87b8df7e075ec9c3db03&output=html&source=placeapi_v2",
				"distance":612,
				"children":[],
				"tag":"公司企业;公司",
				"type":"enterprise"
			},
			"name":"融城广告(玉兰南路)",
			"location":{
				"lng":112.957247,
				"lat":27.775623
			},
			"telephone":"15200355340",
			"detail":1
		},
		{
			"area":"湘潭县",
			"uid":"e30da01191cac0024354d730",
			"address":"湘潭市湘潭县花果山路与玉兰南路交叉路口往东约50米(花果山庄)",
			"province":"湖南省",
			"city":"湘潭市",
			"detail_info":{
				"detail_url":"http://api.map.baidu.com/place/detail?uid=e30da01191cac0024354d730&output=html&source=placeapi_v2",
				"distance":529,
				"children":[],
				"tag":"公司企业;公司",
				"type":"enterprise"
			},
			"name":"德成广告",
			"location":{
				"lng":112.957606,
				"lat":27.776542
			},
			"telephone":"15080773133",
			"detail":1,
			"street_id":"e30da01191cac0024354d730"
		},
		{
			"area":"湘潭县",
			"uid":"ef846680d461ac42631c6782",
			"address":"湘潭市湘潭县云鹏一路与金松一路交叉路口西南侧(英才实验幼儿园西侧约50米)",
			"province":"湖南省",
			"city":"湘潭市",
			"detail_info":{
				"detail_url":"http://api.map.baidu.com/place/detail?uid=ef846680d461ac42631c6782&output=html&source=placeapi_v2",
				"distance":532,
				"children":[],
				"tag":"公司企业;公司",
				"type":"enterprise"
			},
			"name":"连心广告",
			"location":{
				"lng":112.959856,
				"lat":27.782956
			},
			"telephone":"(0731)52522521,18673210960",
			"detail":1
		},
		{
			"area":"湘潭县",
			"uid":"a7a1c74220bef0c8593ac804",
			"address":"湘潭市湘潭县云龙中路450号",
			"province":"湖南省",
			"city":"湘潭市",
			"detail_info":{
				"comment_num":"1",
				"detail_url":"http://api.map.baidu.com/place/detail?uid=a7a1c74220bef0c8593ac804&output=html&source=placeapi_v2",
				"distance":499,
				"children":[],
				"tag":"生活服务;图文快印店",
				"overall_rating":"0.0",
				"type":"life",
				"image_num":"6"
			},
			"name":"新洋文印室",
			"location":{
				"lng":112.957435,
				"lat":27.779714
			},
			"telephone":"13467939063,18627325602",
			"detail":1,
			"street_id":"a7a1c74220bef0c8593ac804"
		},
		{
			"area":"湘潭县",
			"uid":"a0fd482da8a2a181c26c14fd",
			"address":"湖南省湘潭市湘潭县易俗河大鹏中路长江宾馆东200米",
			"province":"湖南省",
			"city":"湘潭市",
			"detail_info":{
				"detail_url":"http://api.map.baidu.com/place/detail?uid=a0fd482da8a2a181c26c14fd&output=html&source=placeapi_v2",
				"distance":711,
				"children":[],
				"tag":"公司企业;公司",
				"type":"enterprise"
			},
			"name":"图样工艺印章广告",
			"location":{
				"lng":112.962024,
				"lat":27.785121
			},
			"telephone":"(0731)57770996,13973281651",
			"detail":1,
			"street_id":"a0fd482da8a2a181c26c14fd"
		},
		{
			"area":"湘潭县",
			"uid":"6f66726246db37465fbe860c",
			"address":"湘潭市湘潭县大鹏中路290号",
			"province":"湖南省",
			"city":"湘潭市",
			"detail_info":{
				"detail_url":"http://api.map.baidu.com/place/detail?uid=6f66726246db37465fbe860c&output=html&source=placeapi_v2",
				"distance":770,
				"children":[],
				"tag":"公司企业;公司",
				"type":"enterprise"
			},
			"name":"金诺广告",
			"location":{
				"lng":112.962305,
				"lat":27.785658
			},
			"telephone":"15580184055,18673275278",
			"detail":1,
			"street_id":"6f66726246db37465fbe860c"
		}
	],
	"status":0
}