{
	"total":191,
	"param":{
		"keywords":"广告,图文,招牌,打印,复印,发光字,灯光,亮化,电子显示屏",
		"center":"易俗河镇(县政府驻地)",
		"center_gps":"27.778729,112.962392"
	},
	"message":"ok",
	"results":[
		{
			"area":"湘潭县",
			"uid":"5703241aa3a269edf03cba21",
			"address":"湘潭市湘潭县杨柳北路与天易大道交叉路口东北侧(金丰亿·学府雅苑)",
			"province":"湖南省",
			"city":"湘潭市",
			"detail_info":{
				"detail_url":"http://api.map.baidu.com/place/detail?uid=5703241aa3a269edf03cba21&output=html&source=placeapi_v2",
				"distance":1732,
				"children":[],
				"tag":"生活服务;图文快印店",
				"type":"life",
				"image_num":"2"
			},
			"name":"广告图文",
			"location":{
				"lng":112.977324,
				"lat":27.786993
			},
			"detail":1
		},
		{
			"area":"湘潭县",
			"uid":"88ab2366bd848deb9cf779fd",
			"address":"湖南省湘潭市湘潭县凤凰西路202附近",
			"province":"湖南省",
			"city":"湘潭市",
			"detail_info":{
				"detail_url":"http://api.map.baidu.com/place/detail?uid=88ab2366bd848deb9cf779fd&output=html&source=placeapi_v2",
				"distance":1784,
				"children":[],
				"tag":"生活服务;图文快印店",
				"type":"life",
				"image_num":"2"
			},
			"name":"宇洋图文",
			"location":{
				"lng":112.945991,
				"lat":27.785579
			},
			"detail":1
		},
		{
			"area":"湘潭县",
			"uid":"450b09ec1b9a2d138936ee07",
			"address":"湖南省湘潭市湘潭县凤凰路689号西北80米",
			"province":"湖南省",
			"city":"湘潭市",
			"detail_info":{
				"detail_url":"http://api.map.baidu.com/place/detail?uid=450b09ec1b9a2d138936ee07&output=html&source=placeapi_v2",
				"distance":1856,
				"children":[],
				"tag":"生活服务;图文快印店",
				"type":"life",
				"image_num":"3"
			},
			"name":"低调快印",
			"location":{
				"lng":112.967173,
				"lat":27.794879
			},
			"detail":1
		}
	],
	"status":0
}