{
	"total":191,
	"param":{
		"keywords":"广告,图文,招牌,打印,复印,发光字,灯光,亮化,电子显示屏",
		"center":"易俗河镇(县政府驻地)",
		"center_gps":"27.778729,112.962392"
	},
	"message":"ok",
	"results":[
		{
			"area":"湘潭县",
			"uid":"3cfbfa129313876f2ee67bab",
			"address":"湘潭市湘潭县大鹏中路与牡丹路交叉路口西南侧(湘潭县行政效能监察中心南侧)",
			"province":"湖南省",
			"city":"湘潭市",
			"detail_info":{
				"detail_url":"http://api.map.baidu.com/place/detail?uid=3cfbfa129313876f2ee67bab&output=html&source=placeapi_v2",
				"distance":874,
				"children":[],
				"tag":"公司企业;公司",
				"type":"enterprise"
			},
			"name":"优饮图文广告",
			"location":{
				"lng":112.956399,
				"lat":27.784533
			},
			"telephone":"17369228808",
			"detail":1
		},
		{
			"area":"湘潭县",
			"uid":"d87329449bd384e98605bf82",
			"address":"湘潭市湘潭县玉兰中路271号",
			"province":"湖南省",
			"city":"湘潭市",
			"detail_info":{
				"detail_url":"http://api.map.baidu.com/place/detail?uid=d87329449bd384e98605bf82&output=html&source=placeapi_v2",
				"distance":972,
				"children":[],
				"tag":"公司企业;公司",
				"type":"enterprise"
			},
			"name":"南方广告装饰工程公司",
			"location":{
				"lng":112.95291,
				"lat":27.781205
			},
			"telephone":"(0731)57888163",
			"detail":1,
			"street_id":"d87329449bd384e98605bf82"
		},
		{
			"area":"湘潭县",
			"uid":"72a06af0972e99ac61685883",
			"address":"湘潭市湘潭县杨柳中路与云龙东路交叉路口往南约50米(学府雅苑·南苑)",
			"province":"湖南省",
			"city":"湘潭市",
			"detail_info":{
				"detail_url":"http://api.map.baidu.com/place/detail?uid=72a06af0972e99ac61685883&output=html&source=placeapi_v2",
				"distance":1466,
				"children":[],
				"tag":"公司企业;公司",
				"type":"enterprise"
			},
			"name":"恒信图文广告",
			"location":{
				"lng":112.97718,
				"lat":27.777054
			},
			"detail":1
		},
		{
			"area":"湘潭县",
			"uid":"41e1a0ffd02efe3b4c2fdff5",
			"address":"湘潭市湘潭县杏丹二路与杜鹃路交叉路口西南侧(杜鹃生活小区5号楼)",
			"province":"湖南省",
			"city":"湘潭市",
			"detail_info":{
				"detail_url":"http://api.map.baidu.com/place/detail?uid=41e1a0ffd02efe3b4c2fdff5&output=html&source=placeapi_v2",
				"distance":1147,
				"children":[],
				"tag":"生活服务;图文快印店",
				"type":"life",
				"image_num":"3"
			},
			"name":"吉达快印",
			"location":{
				"lng":112.954801,
				"lat":27.78656
			},
			"detail":1,
			"street_id":"41e1a0ffd02efe3b4c2fdff5"
		},
		{
			"area":"湘潭县",
			"uid":"446c1e64b60fe6e5deee8bd6",
			"address":"凤凰路489号",
			"province":"湖南省",
			"city":"湘潭市",
			"detail_info":{
				"detail_url":"http://api.map.baidu.com/place/detail?uid=446c1e64b60fe6e5deee8bd6&output=html&source=placeapi_v2",
				"distance":1454,
				"children":[],
				"tag":"公司企业;公司",
				"overall_rating":"0.0",
				"type":"enterprise"
			},
			"name":"天成广告",
			"location":{
				"lng":112.959835,
				"lat":27.79161
			},
			"detail":1,
			"street_id":"446c1e64b60fe6e5deee8bd6"
		},
		{
			"area":"湘潭县",
			"uid":"8145419365f2451f2cb17e8d",
			"address":"湖南省湘潭市湘潭县雪松中路432",
			"province":"湖南省",
			"city":"湘潭市",
			"detail_info":{
				"detail_url":"http://api.map.baidu.com/place/detail?uid=8145419365f2451f2cb17e8d&output=html&source=placeapi_v2",
				"distance":971,
				"children":[],
				"tag":"公司企业;公司",
				"type":"enterprise"
			},
			"name":"佳美广告",
			"location":{
				"lng":112.966419,
				"lat":27.786703
			},
			"telephone":"15080786869",
			"detail":1,
			"street_id":"8145419365f2451f2cb17e8d"
		},
		{
			"area":"湘潭县",
			"uid":"5703241aa3a269edf03cba21",
			"address":"湘潭市湘潭县杨柳北路与天易大道交叉路口东北侧(金丰亿·学府雅苑)",
			"province":"湖南省",
			"city":"湘潭市",
			"detail_info":{
				"detail_url":"http://api.map.baidu.com/place/detail?uid=5703241aa3a269edf03cba21&output=html&source=placeapi_v2",
				"distance":1732,
				"children":[],
				"tag":"生活服务;图文快印店",
				"type":"life",
				"image_num":"2"
			},
			"name":"广告图文",
			"location":{
				"lng":112.977324,
				"lat":27.786993
			},
			"detail":1
		},
		{
			"area":"湘潭县",
			"uid":"edbf329a64afad4c740269d0",
			"address":"湘潭市湘潭县大鹏西路与玉兰中路交叉路口往西南约50米(玉兰花城南侧约50米)",
			"province":"湖南省",
			"city":"湘潭市",
			"detail_info":{
				"detail_url":"http://api.map.baidu.com/place/detail?uid=edbf329a64afad4c740269d0&output=html&source=placeapi_v2",
				"distance":1156,
				"children":[],
				"tag":"公司企业;公司",
				"type":"enterprise"
			},
			"name":"用心广告",
			"location":{
				"lng":112.951054,
				"lat":27.78147
			},
			"detail":1
		},
		{
			"area":"湘潭县",
			"uid":"4b69aa83c75ad01a0aa8d432",
			"address":"金桂南路599号",
			"province":"湖南省",
			"city":"湘潭市",
			"detail_info":{
				"detail_url":"http://api.map.baidu.com/place/detail?uid=4b69aa83c75ad01a0aa8d432&output=html&source=placeapi_v2",
				"distance":1194,
				"children":[],
				"tag":"生活服务;图文快印店",
				"type":"life",
				"image_num":"2"
			},
			"name":"东方广告",
			"location":{
				"lng":112.957398,
				"lat":27.78852
			},
			"telephone":"(0731)57821199",
			"detail":1,
			"street_id":"4b69aa83c75ad01a0aa8d432"
		},
		{
			"area":"湘潭县",
			"uid":"0728b3a4ad9aa50c0a5cb36a",
			"address":"湘潭市湘潭县百花路与杏花二路交叉路口往北约50米(百花学校东北侧约50米)",
			"province":"湖南省",
			"city":"湘潭市",
			"detail_info":{
				"detail_url":"http://api.map.baidu.com/place/detail?uid=0728b3a4ad9aa50c0a5cb36a&output=html&source=placeapi_v2",
				"distance":1310,
				"children":[],
				"tag":"文化传媒;其他",
				"type":"enterprise"
			},
			"name":"湖南慧诚广告传媒有限公司",
			"location":{
				"lng":112.951938,
				"lat":27.786031
			},
			"detail":1
		}
	],
	"status":0
}