{
	"total":8,
	"param":{
		"keywords":"广告,图文,招牌,打印,复印,发光字,灯光,亮化,电子显示屏",
		"center":"石潭镇",
		"center_gps":"27.760012,112.730384"
	},
	"message":"ok",
	"results":[
		{
			"area":"湘潭县",
			"uid":"7306c2e2791b4c3bb75f1e73",
			"address":"南区中心路与石潭大道交叉口东50米",
			"province":"湖南省",
			"city":"湘潭市",
			"detail_info":{
				"detail_url":"http://api.map.baidu.com/place/detail?uid=7306c2e2791b4c3bb75f1e73&output=html&source=placeapi_v2",
				"distance":330,
				"children":[],
				"tag":"生活服务;图文快印店",
				"type":"life",
				"image_num":"2"
			},
			"name":"创意文印",
			"location":{
				"lng":112.727135,
				"lat":27.75927
			},
			"detail":1
		},
		{
			"area":"湘潭县",
			"uid":"0b1c6dfc41681bf9c9c3db48",
			"address":"湘潭市湘潭县南区中心路与南区大道交叉口东50米",
			"province":"湖南省",
			"city":"湘潭市",
			"detail_info":{
				"detail_url":"http://api.map.baidu.com/place/detail?uid=0b1c6dfc41681bf9c9c3db48&output=html&source=placeapi_v2",
				"distance":408,
				"navi_location":{
					"lng":112.72618013801,
					"lat":27.760942054718
				},
				"children":[],
				"tag":"生活服务;图文快印店",
				"type":"life",
				"image_num":"2"
			},
			"name":"创新办公用品文印社",
			"location":{
				"lng":112.726351,
				"lat":27.760868
			},
			"detail":1
		},
		{
			"area":"湘潭县",
			"uid":"ea363bb88b7e74784d554706",
			"address":"湖南省湘潭市湘潭县石潭镇八一路中国农业银行东南100米",
			"province":"湖南省",
			"city":"湘潭市",
			"detail_info":{
				"detail_url":"http://api.map.baidu.com/place/detail?uid=ea363bb88b7e74784d554706&output=html&source=placeapi_v2",
				"distance":690,
				"children":[],
				"tag":"公司企业;公司",
				"type":"enterprise"
			},
			"name":"星空广告",
			"location":{
				"lng":112.723627,
				"lat":27.761692
			},
			"telephone":"13975209322",
			"detail":1
		}
	],
	"status":0
}