{
	"total":8,
	"param":{
		"keywords":"广告,图文,招牌,打印,复印,发光字,灯光,亮化,电子显示屏",
		"center":"花石镇",
		"center_gps":"27.517349,112.733081"
	},
	"message":"ok",
	"results":[
		{
			"area":"湘潭县",
			"uid":"8ef747f011d78314902ca326",
			"address":"湖南省湘潭市湘潭县X018",
			"province":"湖南省",
			"city":"湘潭市",
			"detail_info":{
				"detail_url":"http://api.map.baidu.com/place/detail?uid=8ef747f011d78314902ca326&output=html&source=placeapi_v2",
				"distance":271,
				"children":[],
				"tag":"生活服务;图文快印店",
				"overall_rating":"0.0",
				"type":"life",
				"image_num":"1"
			},
			"name":"湘潭县花石印刷服务部",
			"location":{
				"lng":112.732275,
				"lat":27.515019
			},
			"detail":1
		},
		{
			"area":"湘潭县",
			"uid":"5e979ecd49dbc5ccd8eced58",
			"address":"花石镇大桥路155号",
			"province":"湖南省",
			"city":"湘潭市",
			"detail_info":{
				"detail_url":"http://api.map.baidu.com/place/detail?uid=5e979ecd49dbc5ccd8eced58&output=html&source=placeapi_v2",
				"distance":531,
				"children":[],
				"tag":"公司企业;公司",
				"type":"enterprise"
			},
			"name":"三圆文化广告",
			"location":{
				"lng":112.736353,
				"lat":27.513555
			},
			"telephone":"13574070998",
			"detail":1
		},
		{
			"area":"湘潭县",
			"uid":"d90119bd9c7680b4fb2d611f",
			"address":"湘潭市湘潭县(花石中心小学西南侧约200米)",
			"province":"湖南省",
			"city":"湘潭市",
			"detail_info":{
				"detail_url":"http://api.map.baidu.com/place/detail?uid=d90119bd9c7680b4fb2d611f&output=html&source=placeapi_v2",
				"distance":592,
				"children":[],
				"tag":"公司企业;公司",
				"type":"enterprise"
			},
			"name":"希望广告",
			"location":{
				"lng":112.735482,
				"lat":27.512466
			},
			"detail":1
		},
		{
			"area":"湘潭县",
			"uid":"a4f7e7d1a9e98a183ee231ca",
			"address":"大桥路与018县道交叉口东50米",
			"province":"湖南省",
			"city":"湘潭市",
			"detail_info":{
				"detail_url":"http://api.map.baidu.com/place/detail?uid=a4f7e7d1a9e98a183ee231ca&output=html&source=placeapi_v2",
				"distance":993,
				"children":[],
				"tag":"公司企业;公司",
				"type":"enterprise"
			},
			"name":"佳豪印刷办公用品广告",
			"location":{
				"lng":112.72382,
				"lat":27.513842
			},
			"detail":1
		},
		{
			"area":"湘潭县",
			"uid":"b22f0d9ad1adce7f343a713d",
			"address":"湘谭县花石镇新湖路",
			"province":"湖南省",
			"city":"湘潭市",
			"detail_info":{
				"detail_url":"http://api.map.baidu.com/place/detail?uid=b22f0d9ad1adce7f343a713d&output=html&source=placeapi_v2",
				"distance":1270,
				"children":[],
				"tag":"公司企业;公司",
				"type":"enterprise"
			},
			"name":"万盟广告",
			"location":{
				"lng":112.720292,
				"lat":27.515958
			},
			"detail":1
		},
		{
			"area":"湘潭县",
			"uid":"be69cc12b6345cee593ac85d",
			"address":"湘潭市湘潭县",
			"province":"湖南省",
			"city":"湘潭市",
			"detail_info":{
				"detail_url":"http://api.map.baidu.com/place/detail?uid=be69cc12b6345cee593ac85d&output=html&source=placeapi_v2",
				"distance":1461,
				"children":[],
				"tag":"公司企业;公司",
				"type":"enterprise"
			},
			"name":"宏旺广告",
			"location":{
				"lng":112.718279,
				"lat":27.516703
			},
			"telephone":"15387322085",
			"detail":1
		}
	],
	"status":0
}